{"copyright":"Copyright Sveriges Radio 2015. All rights reserved.","messages":[{"id":1272716,"priority":5,"createddate":"\/Date(1415103788277+0100)\/","title":"Lv 824 Leipikvattnet -Stekenjokk","exactlocation":"","description":"Vägen är stängd vintertid.","latitude":64.950035095214844,"longitude":14.196930885314941,"category":0,"subcategory":"Trafikstörning"},{"id":1205525,"priority":4,"createddate":"\/Date(1421851016277+0100)\/","title":"Sollefteå kommun","exactlocation":"Långbjörns kraftstation söder om Junsele","description":"Vägen över dammen mellan Röåns skjutbana och rv 90 är avstängd för all trafik fram till sista mars.","latitude":63.637242114815805,"longitude":16.777747164619381,"category":0,"subcategory":"Vägarbete"},{"id":1297072,"priority":4,"createddate":"\/Date(1421998745420+0100)\/","title":"Röduppleden","exactlocation":"","description":"Isvägen är öppen för fordon upp till 12 ton.","latitude":66.485633850097656,"longitude":22.777805328369141,"category":0,"subcategory":"Trafikstörning"},{"id":1301683,"priority":4,"createddate":"\/Date(1421998752153+0100)\/","title":"Bohedenleden","exactlocation":"","description":"Isvägen är öppen för fordon upp till 12 ton.","latitude":66.306289672851563,"longitude":22.914651870727539,"category":0,"subcategory":"Trafikstörning"},{"id":1278222,"priority":4,"createddate":"\/Date(1423112009117+0100)\/","title":"E4 Piteå-Norrfjärden","exactlocation":"Boviken-Norrfjärden","description":"Ombyggnation av E4 till 2+1 väg med mittvajer. ","latitude":65.39227294921875,"longitude":21.450887680053711,"category":0,"subcategory":"Vägarbete"},{"id":1336215,"priority":5,"createddate":"\/Date(1423496634113+0100)\/","title":"Norra Allégatan ","exactlocation":"Pusterviksgatan och Järntorgsgatan ","description":"Ledningsarbete riktning Järntorget. ett körfält avstängt","latitude":57.700172424316406,"longitude":11.955982208251953,"category":0,"subcategory":"Vägarbete"},{"id":1338667,"priority":3,"createddate":"\/Date(1423545119940+0100)\/","title":"Rv 86 Sundsvall-Kovland","exactlocation":"Genom Bergsåker","description":"Arbete med att bygga en gång- och cykelbana.","latitude":62.425678253173828,"longitude":17.179851531982422,"category":0,"subcategory":"Vägarbete"},{"id":1338759,"priority":5,"createddate":"\/Date(1423756569200+0100)\/","title":"Fabriksgatan ","exactlocation":"Tomtegatan och Örgrytevägen.","description":"Tre schakt gör att det är begränsad framkomlighet på Fabriksgatan i båda riktningar.\n","latitude":57.700248718261719,"longitude":11.994023323059082,"category":0,"subcategory":"Vägarbete"},{"id":1338581,"priority":5,"createddate":"\/Date(1423830456277+0100)\/","title":"Lv 168 Marstrandsvägen","exactlocation":"Nordhem-Tjuvkil","description":"Sänkt hastighet och begränsad framkomlighet förbi ett vägarbete.","latitude":57.897773742675781,"longitude":11.726047515869141,"category":0,"subcategory":"Vägarbete"},{"id":1294825,"priority":5,"createddate":"\/Date(1423835959603+0100)\/","title":"Gibraltargatan Fysiken-Guldheden","exactlocation":"Doktor Forselius Backe ","description":"Vägen breddas för gång-och cykelväg. Endast ett körfält, trafiken regleras med trafiksignaler. Vid sprängning stoppas trafiken.","latitude":57.677589416503906,"longitude":11.981621742248535,"category":0,"subcategory":"Vägarbete"},{"id":1351374,"priority":3,"createddate":"\/Date(1424062486810+0100)\/","title":"Lv 829 Valbo-Ryr–Tostane, vid Holmevattnet, öster om Munkedal","exactlocation":"","description":"Vägen avstängd från måndag 16/2 09:00 pga brobyte. Orange vägvisning. Öppnar igen i slutet av juni.","latitude":58.464874267578125,"longitude":11.874799728393555,"category":0,"subcategory":"Vägarbete"},{"id":1352141,"priority":3,"createddate":"\/Date(1424082608823+0100)\/","title":"Rv 34 Högsby–Ruda","exactlocation":"Tingebro, bron över Emån precis utanför Högsby","description":"Reparation av bron. Trafiken leds om via Kolsrum. Följ orange skyltning.","latitude":57.159282684326172,"longitude":16.033102035522461,"category":0,"subcategory":"Vägarbete"},{"id":1346971,"priority":5,"createddate":"\/Date(1424148424780+0100)\/","title":"Lv 692 Krylbo","exactlocation":"Järnvägsbron söder om stationen","description":"Renovering av järnvägsbron.","latitude":60.1246223449707,"longitude":16.218000411987305,"category":0,"subcategory":"Vägarbete"},{"id":1339785,"priority":4,"createddate":"\/Date(1424169887890+0100)\/","title":"E45 Marieholmsleden","exactlocation":"Gullbergsmotet (75) till Lärjemotet ","description":"Bygger tpl Marieholm, avstängda körfält mot Angered.","latitude":57.720394134521484,"longitude":11.994328498840332,"category":0,"subcategory":"Vägarbete"},{"id":1348580,"priority":3,"createddate":"\/Date(1424170020073+0100)\/","title":"Göteborg","exactlocation":"","description":"Dammbindning kommer utföras under våren på dom stora lederna, främst  E6:an och Dag Hammarsköldsled. Information kommer när det är dags.","latitude":57.718026848226714,"longitude":11.974874894379417,"category":0,"subcategory":"Trafikstörning"},{"id":1352250,"priority":3,"createddate":"\/Date(1424185182640+0100)\/","title":"E20 Strängnäs","exactlocation":"Tpl Lundaavfarten mot rv55","description":"Arbete på avfartsrampen.","latitude":59.364894866943359,"longitude":16.9663143157959,"category":0,"subcategory":"Vägarbete"},{"id":1264253,"priority":4,"createddate":"\/Date(1424187041903+0100)\/","title":"Gävleborgs län","exactlocation":"","description":"Fläckvis is på de mindre vägarna. ","latitude":61.4704742,"longitude":16.70279,"category":0,"subcategory":"Halkvarning"},{"id":1342196,"priority":3,"createddate":"\/Date(1424324200770+0100)\/","title":"Lv 1019 Storulvån","exactlocation":"","description":"Vägen nattstängd kl 22-08 fram till 15/4. Vid besvärligt väder kan vägen stängas med kort varsel.","latitude":63.215427398681641,"longitude":12.406817436218262,"category":0,"subcategory":"Trafikstörning"},{"id":1354237,"priority":4,"createddate":"\/Date(1424418475050+0100)\/","title":"Helsingborg","exactlocation":"Helsingborgs sjukhusområde","description":"Parkeringshuset stängt från och med 23/2. Hänvisningskyltar kommer finnas på och runtom sjukhusområdet, som visar patienter och allmänhet till nya p-ytor.\n","latitude":56.061931219915465,"longitude":12.729539976538852,"category":3,"subcategory":"Hälsa och sjukvård"},{"id":1354237,"priority":4,"createddate":"\/Date(1424418475050+0100)\/","title":"Helsingborg","exactlocation":"Helsingborgs sjukhusområde","description":"Parkeringshuset stängt från och med 23/2. Hänvisningskyltar kommer finnas på och runtom sjukhusområdet, som visar patienter och allmänhet till nya p-ytor.\n","latitude":56.061931219915465,"longitude":12.729539976538852,"category":3,"subcategory":"Hälsa och sjukvård"},{"id":1338401,"priority":5,"createddate":"\/Date(1424425576197+0100)\/","title":"Lv 650 Hejnum Kyrka-Tingstäde Kyrka  ","exactlocation":"","description":"Begränsad framkomlighet i båda körriktningarna pga kabelarbete.","latitude":57.7104606628418,"longitude":18.624330520629883,"category":0,"subcategory":"Vägarbete"},{"id":1348662,"priority":3,"createddate":"\/Date(1424425607833+0100)\/","title":"Lv 676 Lärbro ","exactlocation":"Vivlings i Hellvi","description":"Begränsad framkomlighet pga kabelarbete.","latitude":57.765743255615234,"longitude":18.909671783447266,"category":0,"subcategory":"Vägarbete"},{"id":1352909,"priority":5,"createddate":"\/Date(1424445069797+0100)\/","title":"Eksjö","exactlocation":"Södra Kyrkogatan, mellan Södra Storgatan och 40 meter väster om Österlånggatan","description":"Avstängt för genomfart 18 feb - 24 mars 07:00–18:00. Orsaken är kranarbeten.","latitude":57.666866039125644,"longitude":14.971986750747948,"category":0,"subcategory":"Trafikstörning"},{"id":1354333,"priority":3,"createddate":"\/Date(1424610033530+0100)\/","title":"Jönköping","exactlocation":"Torpagatan mellan Brahegatan-Barnarpsgatan","description":"Vägen är avstängd från måndag 23/2 ca: kl. 9.30 och 8-10 veckor framåt.","latitude":57.771704318471777,"longitude":14.154603115593893,"category":0,"subcategory":"Vägarbete"},{"id":1280589,"priority":3,"createddate":"\/Date(1424665692670+0100)\/","title":"Solna","exactlocation":"Frösundaleden, vid och mellan rondellerna, Kolonnvägen","description":"Trångt förbi arbetsplatsen, ett körfält mot Solna Centrum, det bildas lätt kö. Arbetet beräknas vara klart i augusti 2015.","latitude":59.363973582104208,"longitude":18.015905020930241,"category":0,"subcategory":"Vägarbete"},{"id":1334192,"priority":3,"createddate":"\/Date(1424752013513+0100)\/","title":"Helsingborg","exactlocation":"Drottninggatan","description":"Från 19/1 är Drottninggatan avstängd för fordonstrafik mellan Pålsjöbadet och Vikingsstrandsbadet. Trafikanter hänvisas istället till väg 111 och Österleden. \n","latitude":56.069328308105469,"longitude":12.672935485839844,"category":0,"subcategory":"Vägarbete"},{"id":1352620,"priority":3,"createddate":"\/Date(1424753731353+0100)\/","title":"Dalarnas län","exactlocation":"Falun med omnejd","description":"VM i skidor i Falun fram till 1/3 vilket medför ökad trafik i området. Räkna med längre restider under tävlingsdagarna.","latitude":60.589771270751953,"longitude":15.665323257446289,"category":0,"subcategory":"Trafikstörning"},{"id":1352620,"priority":3,"createddate":"\/Date(1424753731353+0100)\/","title":"Dalarnas län","exactlocation":"Falun med omnejd","description":"VM i skidor i Falun fram till 1/3 vilket medför ökad trafik i området. Räkna med längre restider under tävlingsdagarna.","latitude":60.589771270751953,"longitude":15.665323257446289,"category":0,"subcategory":"Trafikstörning"},{"id":1352620,"priority":3,"createddate":"\/Date(1424753731353+0100)\/","title":"Dalarnas län","exactlocation":"Falun med omnejd","description":"VM i skidor i Falun fram till 1/3 vilket medför ökad trafik i området. Räkna med längre restider under tävlingsdagarna.","latitude":60.589771270751953,"longitude":15.665323257446289,"category":0,"subcategory":"Trafikstörning"},{"id":1352620,"priority":3,"createddate":"\/Date(1424753731353+0100)\/","title":"Dalarnas län","exactlocation":"Falun med omnejd","description":"VM i skidor i Falun fram till 1/3 vilket medför ökad trafik i området. Räkna med längre restider under tävlingsdagarna.","latitude":60.589771270751953,"longitude":15.665323257446289,"category":0,"subcategory":"Trafikstörning"},{"id":1263779,"priority":4,"createddate":"\/Date(1424763244130+0100)\/","title":"Uppsala län","exactlocation":"","description":"Fläckvis halka på vägarna runt om i länet.","latitude":59.96126,"longitude":17.78068,"category":0,"subcategory":"Halkvarning"},{"id":1356861,"priority":5,"createddate":"\/Date(1424794216947+0100)\/","title":"Mölndal","exactlocation":"Storgatan","description":"Gatan stängd i båda riktningar mellan Broslättsgatan och Barnhemsgatan, för VA-arbeten.","latitude":57.608673362934667,"longitude":12.089700594551598,"category":0,"subcategory":"Vägarbete"},{"id":1352300,"priority":3,"createddate":"\/Date(1424844095923+0100)\/","title":"Lv 669 Iggesund -Sörforsa ","exactlocation":"Vid Stenbo","description":"Vägen avstängd, byte av dagvattenledning. Följ skyltad omledningsväg. Fram till 23/3.","latitude":61.685115814208984,"longitude":16.982282638549805,"category":0,"subcategory":"Vägarbete"},{"id":1356628,"priority":3,"createddate":"\/Date(1424857235377+0100)\/","title":"Rosersberg","exactlocation":"Slottsvägen vid järnvägsövergången","description":"Vägen helt avstängd vid tågövergången pga trasiga järnvägsbommar.","latitude":59.586391448974609,"longitude":17.878490447998047,"category":0,"subcategory":"Trafikstörning"},{"id":1324986,"priority":4,"createddate":"\/Date(1424925947550+0100)\/","title":"Avanleden","exactlocation":"","description":"Isvägen är öppen för fordon upp till 7 ton.","latitude":65.680000305175781,"longitude":21.823339462280273,"category":0,"subcategory":"Trafikstörning"},{"id":1346489,"priority":3,"createddate":"\/Date(1424926096550+0100)\/","title":"Lv 586 Sunne-Vällviken","exactlocation":"","description":"Isvägen öppen för fordon max 2 ton.","latitude":63.091640472412109,"longitude":14.38310432434082,"category":0,"subcategory":"Trafikstörning"},{"id":1354930,"priority":3,"createddate":"\/Date(1424926223977+0100)\/","title":"E45 Blattniksele-Storuman","exactlocation":"Vid Rengärde ca fem km söder om Gubbträsk","description":"Trafiken passerar växelvis. ","latitude":65.18438720703125,"longitude":17.458179473876953,"category":0,"subcategory":"Vägarbete"},{"id":1312606,"priority":3,"createddate":"\/Date(1424926390040+0100)\/","title":"Lv 623 Håkansta-Norderön","exactlocation":" ","description":"Färjan inställd fram till och med 31/3 pga underhållsarbete. Ingen isväg.","latitude":63.136474609375,"longitude":14.32264518737793,"category":0,"subcategory":"Trafikstörning"},{"id":1318982,"priority":4,"createddate":"\/Date(1424926412227+0100)\/","title":"Lv 564 Ammer-Stavre","exactlocation":"Ammeröleden","description":"Isvägen öppen för fordon upp till 4 ton.","latitude":62.829200744628906,"longitude":15.303695678710938,"category":0,"subcategory":"Trafikstörning"},{"id":1354138,"priority":5,"createddate":"\/Date(1424928385927+0100)\/","title":"Lv 204 Nolby–Infart Rudskoga k:a","exactlocation":"","description":"Montering av vägräcke.","latitude":59.056617736816406,"longitude":14.234550476074219,"category":0,"subcategory":"Vägarbete"},{"id":1357375,"priority":3,"createddate":"\/Date(1424941123147+0100)\/","title":"Lv 222 Värmdöleden ","exactlocation":"Vid Grisslinge","description":"De reversibla körfälten låsta tills vidare: Två körfält mot Stockholm, ett körfält mot Stavsnäs. ","latitude":59.311531066894531,"longitude":18.429182052612305,"category":0,"subcategory":"Trafikstörning"},{"id":1357975,"priority":3,"createddate":"\/Date(1424954954657+0100)\/","title":"Mora-Sälen","exactlocation":"","description":"Mycket trafik runt Mora-Sälen pga Vasaloppsveckan.","latitude":61.007475794095718,"longitude":14.584883357731705,"category":0,"subcategory":"Trafikstörning"},{"id":1357808,"priority":3,"createddate":"\/Date(1424959372810+0100)\/","title":"Skeppsbron","exactlocation":"Mellan Slussen och Slottet","description":"Ett körfält öppet i vardera riktning. Ledningsarbete.","latitude":59.321052551269531,"longitude":18.073200225830078,"category":0,"subcategory":"Vägarbete"},{"id":1324931,"priority":3,"createddate":"\/Date(1424983166343+0100)\/","title":"Lv 623 Isön-Norderön Ö ","exactlocation":"Isöleden","description":"Isvägen öppen för fordon max 2 ton. Färjan kan beställas av fordon över 2 ton.","latitude":63.137664794921875,"longitude":14.393692016601562,"category":1,"subcategory":"Färja"},{"id":1357962,"priority":3,"createddate":"\/Date(1425013669153+0100)\/","title":"Lv 2510 Björkås – Rännelund båda riktningarna i Västra Götalands län (O)","exactlocation":"","description":"Begränsad framkomlighet på grund av att vägen är delvis är bortspolad","latitude":58.187725067138672,"longitude":12.850201606750488,"category":0,"subcategory":"Trafikstörning"},{"id":1344730,"priority":3,"createddate":"\/Date(1425014829293+0100)\/","title":"E10 Kiruna-Svappavaara","exactlocation":"Mertainen-Svappavaara","description":"Upp till 160 lastbilar kommer trafikera sträckan varje dag.","latitude":67.679014633820714,"longitude":20.884219245045045,"category":0,"subcategory":"Trafikstörning"},{"id":1357776,"priority":3,"createddate":"\/Date(1425014832037+0100)\/","title":"","exactlocation":"Kalix, Haparanda, Överkalix och Övertorneå upp till Svanstein","description":"Militärövning pågår till söndag. Ett 60-tal fordon medverkar i övningen och kan påverka trafiken i området. De militära fordonen försöker undvika de stora vägarna i den mån det går. Var uppmärksam på militära varningsskyltar.  ","latitude":65.852706626299309,"longitude":23.167322657330583,"category":0,"subcategory":"Trafikstörning"},{"id":1358277,"priority":3,"createddate":"\/Date(1425022332663+0100)\/","title":"Rv 28 Klättorp-Fiddekulla ","exactlocation":"","description":"En älgkalv irrar omkring i området efter en tidigare olycka.","latitude":56.526088714599609,"longitude":15.612070083618164,"category":0,"subcategory":"Trafikstörning"},{"id":1358450,"priority":3,"createddate":"\/Date(1425024663177+0100)\/","title":"Stockholm","exactlocation":"","description":"Prognos för perioden fredag 27 februari - måndag 2 mars: Låga till måttliga halter av pollen från hassel och al.","latitude":59.321777576813048,"longitude":17.997000126836259,"category":3,"subcategory":"Pollen"},{"id":1358452,"priority":4,"createddate":"\/Date(1425024904243+0100)\/","title":"Uppsala län","exactlocation":"","description":"Fredag tom måndag väntas låga till måttliga halter av pollen från hassel och al.\n","latitude":59.944871263050594,"longitude":17.71628648780889,"category":3,"subcategory":"Pollen"},{"id":1358455,"priority":3,"createddate":"\/Date(1425025344280+0100)\/","title":"E45 Kåbdalis-Jokkmokk","exactlocation":"Vid Kittajaur","description":"Begränsad framkomlighet pga arbeten vid järnvägsövergången.","latitude":66.177192687988281,"longitude":19.94685173034668,"category":0,"subcategory":"Vägarbete"},{"id":1357489,"priority":3,"createddate":"\/Date(1425031857043+0100)\/","title":"Visby","exactlocation":"Schweitzergränd, S:t Hansgatan, Rådhusplan, Mellangatan, Danzigergränd och Strandgatan","description":"Avstängningar i samband med grävarbeten 2-26 mars.","latitude":57.63975965237659,"longitude":18.294949759825116,"category":0,"subcategory":"Vägarbete"},{"id":1358535,"priority":3,"createddate":"\/Date(1425034612220+0100)\/","title":"Dalarnas län","exactlocation":"","description":"Låga till måttliga halter alpollen, låga halter hasselpollen.","latitude":60.750251198062792,"longitude":15.844182278901942,"category":3,"subcategory":"Pollen"},{"id":1358500,"priority":3,"createddate":"\/Date(1425035547073+0100)\/","title":"Storuman","exactlocation":"Storumansjön mellan Laisbäck och Laisotnäset","description":"Varning för en mycket stor vak som har uppstått på sjön. Den är uppåt 5, 6 km lång och allt från 3 till 20 meter bred.","latitude":65.2226273514253,"longitude":16.880183054118184,"category":0,"subcategory":"Trafikstörning"},{"id":1358585,"priority":3,"createddate":"\/Date(1425038639463+0100)\/","title":"Västerbottens län","exactlocation":"","description":"Måndag 2/3 står blodbussen på Renmarkstorget i Umeå mellan kl. 9:00-12:00.","latitude":63.763658379152346,"longitude":20.443997051628063,"category":3,"subcategory":"Hälsa och sjukvård"},{"id":1358616,"priority":3,"createddate":"\/Date(1425041632847+0100)\/","title":"Gullspångs kommun","exactlocation":"Gullspång","description":"Växel plus fast telefoni kommunkontoret i Hova ur drift. Alternativt nummer för att nå växel är 0551-36000","latitude":58.987980021642962,"longitude":14.097903870000001,"category":3,"subcategory":"Tele och data"},{"id":1350080,"priority":5,"createddate":"\/Date(1425047019823+0100)\/","title":"Göteborg","exactlocation":"Centrum","description":"Ledningsarbete på Södra Allégatan i höjd med Järntorgsgatan.","latitude":57.700210571289063,"longitude":11.953536987304688,"category":0,"subcategory":"Vägarbete"},{"id":1352171,"priority":3,"createddate":"\/Date(1425050033313+0100)\/","title":"Rulltrappor","exactlocation":"Östermalmstorg, T-Centralen, Slussen, Zinkensdamm, Hornstull, Skanstull, Hötorget, Rådmansgatan, Odenplan och Sankt Eriksplan","description":"Östermalmstorg, St Eriksplan och Zinkensdamm är samtliga rulltrappor avstängda, övriga stationer vissa utgångar. ","latitude":59.33596999862948,"longitude":18.079029966385995,"category":1,"subcategory":"T-bana"},{"id":1358733,"priority":3,"createddate":"\/Date(1425051614433+0100)\/","title":"Jönköping","exactlocation":"Vätterslund","description":"Vattenläcka som berör bl.a Mäster Gudmundsväg och Stigbergsliden. Vattentunna utställd i korsningen Mäster Gudmunds väg/Stigbergsliden. Arbete pågår. Tyvärr ingen prognos när arbetet är klart.\n","latitude":57.817524746523794,"longitude":14.216438490425094,"category":3,"subcategory":"Vatten"},{"id":1358722,"priority":3,"createddate":"\/Date(1425050455753+0100)\/","title":"Stockholmsmässan","exactlocation":"Åbyvägen och Huddingevägen","description":"Stort evenemang startar 28 februari. Pågår fram till 8 mars. Räkna med mycket trafik, risk för köer.","latitude":59.278371129441425,"longitude":18.019601872549881,"category":0,"subcategory":"Trafikstörning"},{"id":1358736,"priority":3,"createddate":"\/Date(1425054389890+0100)\/","title":"Huskvarna centrum","exactlocation":"","description":"Vattenläcka. Vattenavstängning från kl. 23  fre 27/2. Fastigheter som blir utan vatten är Kungsgatan 21-31, Drottninggatan 17, Rosenborgsgatan 26-28, Jönköpingsvägen 20. Ingen vattentunna ställs ut. Ingen prognos på när arbetet blir klart.","latitude":57.817524746523794,"longitude":14.216438490425094,"category":3,"subcategory":"Vatten"},{"id":1358774,"priority":3,"createddate":"\/Date(1425055586740+0100)\/","title":"Nobelgatan i höjd med hållplatsläge i båda riktningar.","exactlocation":"","description":"Skada i vägbanan","latitude":57.713592529296875,"longitude":12.01241397857666,"category":0,"subcategory":"Trafikstörning"},{"id":1357956,"priority":4,"createddate":"\/Date(1425106686007+0100)\/","title":"Båstad kommun","exactlocation":"Grevie och Förslöv","description":"Spolning avslutad. Vattnet kan användas som vanligt, förutom till mat och dryck, kokningsrekommendationen kvarstår troligen tills på måndag.","latitude":56.381911459712569,"longitude":12.785864817445134,"category":3,"subcategory":"Vatten"},{"id":1302570,"priority":4,"createddate":"\/Date(1425121374037+0100)\/","title":"Lv 531 Mittådalen-Ljungdalen","exactlocation":"Flatruet","description":"Vägen över Flatruet är nattstängd kl 22-06 fram till 15/4. Vid besvärligt väder kan vägen stängas även under annan tid.\n","latitude":62.775653839111328,"longitude":12.765754699707031,"category":0,"subcategory":"Trafikstörning"},{"id":1359053,"priority":3,"createddate":"\/Date(1425127344380+0100)\/","title":"Lv 711 Oskarshamn-Kristdala","exactlocation":"Björnhult ","description":"Älgar i vägområdet.","latitude":57.306690216064453,"longitude":16.285148620605469,"category":0,"subcategory":"Trafikstörning"},{"id":1332732,"priority":5,"createddate":"\/Date(1425174740197+0100)\/","title":"Göteborg","exactlocation":"Norra Hamngatan mellan Östra Hamngatan och Kämpebron","description":"Rivning och uppbyggnad av kanalmur. Vägen kommer att vara avstängd mellan Kämpebron och Fontänbron.\n","latitude":57.706951141357422,"longitude":11.967918395996094,"category":0,"subcategory":"Vägarbete"},{"id":1359333,"priority":3,"createddate":"\/Date(1425207581407+0100)\/","title":"Rv 66 Tandådalen-Sälen","exactlocation":"Fjällvägen mellan Tandådalen-Sälen och vidare ner mot Berga by","description":"Köer i riktning mot Sälen. Mycket dåligt väglag och snöstorm. ","latitude":61.187376398777353,"longitude":13.027336233043451,"category":0,"subcategory":"Trafikstörning"},{"id":1359001,"priority":4,"createddate":"\/Date(1425208412520+0100)\/","title":"Norrbottens län","exactlocation":"Norra Lapplandsfjällen","description":"SMHI varning klass 1 mycket hård vind. På kalfjället och i utsatta dalgångar, hård eller mycket hård sydlig eller sydostlig vind, 15-20 m/s. Detta i kombination med snöfall. Vinden blir sig som kraftigast i natt och avtar sedan under måndag förmiddag.","latitude":66.736106368850926,"longitude":16.734168309274157,"category":3,"subcategory":"Väder"},{"id":1359002,"priority":4,"createddate":"\/Date(1425208438417+0100)\/","title":"Västerbottens län","exactlocation":"Södra Lapplandsfjällen","description":"SMHI varning klass 1 mycket hård vind. På kalfjället och i utsatta dalgångar, hård eller mycket hård sydlig eller sydostlig vind, 14-18 m/s. Detta i kombination med snöfall. Vinden avtar sent i kväll eller i natt.\n","latitude":64.8638331619631,"longitude":14.457880633996675,"category":3,"subcategory":"Väder"},{"id":1359003,"priority":4,"createddate":"\/Date(1425208490180+0100)\/","title":"Jämtlands län","exactlocation":"Jämtlandsfjällen och Härjedalsfjällen","description":"SMHI varning klass 1 mycket hård vind. På kalfjället och i utsatta dalgångar, hård eller mycket hård sydlig eller sydostlig vind, 14-18 m/s. Detta i kombination med snöfall. Vinden avtar sent i kväll.","latitude":63.646785245482683,"longitude":12.649192176216079,"category":3,"subcategory":"Väder"},{"id":1359358,"priority":3,"createddate":"\/Date(1425209626317+0100)\/","title":"Lv 686 Norrfjärden","exactlocation":"","description":"Kallelseturen kl 18:00 utgår idag 1/3.Turen kl 16:00 avgår enligt tidtabell.","latitude":63.8624382019043,"longitude":20.739736557006836,"category":2,"subcategory":"Färja"},{"id":1359337,"priority":3,"createddate":"\/Date(1425210387070+0100)\/","title":"Rv 66 Tandådalen-Sälen-Transtrand","exactlocation":"","description":"Räkna med mycket trafik och köer under dagen. Sportlovstrafik och stugbytardag.","latitude":60.963924407958984,"longitude":13.346274375915527,"category":0,"subcategory":"Trafikstörning"},{"id":1359372,"priority":3,"createddate":"\/Date(1425211539143+0100)\/","title":"Lv 770 Totebo-Hjorted ","exactlocation":"närmare Hjorted","description":"Nedfallet träd blockerar delar av vägen. ","latitude":57.6212272644043,"longitude":16.273153305053711,"category":0,"subcategory":"Trafikstörning"},{"id":1359374,"priority":3,"createddate":"\/Date(1425211656333+0100)\/","title":"Stockholms län","exactlocation":"Delar av Södertörn","description":"Strömavbrott som kommer och går och berör ca 800 kunder. ","latitude":59.06348217124247,"longitude":18.022462398134891,"category":3,"subcategory":"El"},{"id":1359382,"priority":3,"createddate":"\/Date(1425213230850+0100)\/","title":"E16 Vägsjöfors-Stöllet","exactlocation":"Vitsand","description":"En häst på/vid vägen. ","latitude":60.351367950439453,"longitude":13.169439315795898,"category":0,"subcategory":"Trafikstörning"},{"id":1359129,"priority":3,"createddate":"\/Date(1425213734383+0100)\/","title":"Lv 363 Umeå-Hissjön","exactlocation":"Strax norr om Umeå vid Forslunda gymnasium","description":"Renar på vägen. ","latitude":63.946201324462891,"longitude":20.144641876220703,"category":0,"subcategory":"Trafikstörning"},{"id":1359390,"priority":3,"createddate":"\/Date(1425214252077+0100)\/","title":"Rv 40 Bottnaryd-Jönköping","exactlocation":"efter påfarten från Jära","description":"Stillastående lastbil på vägrenen mot Jönköping.","latitude":57.754589080810547,"longitude":13.896442413330078,"category":0,"subcategory":"Trafikstörning"},{"id":1264256,"priority":4,"createddate":"\/Date(1425214312610+0100)\/","title":"Västerbottens län    ","exactlocation":"   ","description":" Risk för snöhalka och snödrev i fjällen. Övriga delar av länet har varierat väglag med risk för halka. ","latitude":64.9181442,"longitude":18.94519,"category":0,"subcategory":"Halkvarning"},{"id":1264254,"priority":4,"createddate":"\/Date(1425214358470+0100)\/","title":" Västernorrlands län   ","exactlocation":"       ","description":"Risk för att väglaget försämras pga regn och blötsnö på eftermiddagen.","latitude":62.8307724,"longitude":17.636301,"category":0,"subca